<?xml version="1.0" encoding="UTF-8" ?>
<dataset title=" TIV of arms exports from all, 1950-2006  Source: SIPRI Arms Transfers Database " unit="year">
	<style></style>
	<timeseries>
	
		<period value="1950">			<location name="Albania" lon="20.181061" lat="41.156799" value="" />
						<location name="Algeria" lon="1.652840" lat="28.026880" value="" />
						<location name="Angola" lon="17.907209" lat="-11.941840" value="" />
						<location name="Argentina" lon="-63.584808" lat="-37.090698" value="" />
						<location name="Australia" lon="133.393112" lat="-24.916201" value="" />
						<location name="Austria" lon="13.345770" lat="47.696510" value="" />
						<location name="Bahrain" lon="50.548500" lat="26.024750" value="" />
						<location name="Bangladesh" lon="90.350899" lat="23.687450" value="" />
						<location name="Belarus" lon="27.973749" lat="53.711048" value="" />
						<location name="Belgium" lon="4.476770" lat="50.500992" value="" />
						<location name="Bosnia-Herzegovina" lon="17.689079" lat="43.920250" value="" />
						<location name="Brazil" lon="-54.387829" lat="-14.242920" value="" />
						<location name="Bulgaria" lon="25.491590" lat="42.729759" value="" />
						<location name="Cambodia" lon="104.983856" lat="12.547730" value="" />
						<location name="Canada" lon="-96.582092" lat="62.358730" value="35" />
						<location name="Chad" lon="18.738060" lat="15.445710" value="" />
						<location name="Chile" lon="-71.341087" lat="-35.705219" value="" />
						<location name="China" lon="104.165649" lat="36.894451" value="" />
						<location name="Croatia" lon="15.408430" lat="44.736759" value="" />
						<location name="Cuba" lon="-77.806793" lat="21.511021" value="" />
						<location name="Cyprus" lon="33.435501" lat="35.132519" value="" />
						<location name="Czechoslovakia" lon="15.475270" lat="49.803791" value="15" />
						<location name="Czech Republic" lon="15.475270" lat="49.803791" value="" />
						<location name="Denmark" lon="9.516680" lat="56.275700" value="" />
						<location name="Egypt" lon="30.246469" lat="26.696360" value="" />
						<location name="Eritrea" lon="39.950859" lat="15.181320" value="" />
						<location name="Estonia" lon="25.815950" lat="58.596161" value="" />
						<location name="Ethiopia" lon="40.493050" lat="9.147300" value="" />
						<location name="Finland" lon="26.064140" lat="64.950371" value="" />
						<location name="France" lon="1.718320" lat="46.712448" value="13" />
						<location name="Gabon" lon="11.598910" lat="-0.828090" value="" />
						<location name="Georgia" lon="-83.222931" lat="32.678131" value="" />
						<location name="Ghana" lon="-1.031820" lat="7.955010" value="" />
						<location name="Greece" lon="21.845560" lat="39.072449" value="" />
						<location name="Guatemala" lon="-90.232307" lat="15.776250" value="" />
						<location name="Hungary" lon="19.509600" lat="47.164509" value="" />
						<location name="Iceland" lon="-19.021160" lat="64.963943" value="" />
						<location name="India" lon="82.794762" lat="21.786600" value="" />
						<location name="Indonesia" lon="113.917397" lat="0.109740" value="" />
						<location name="Iran" lon="53.682362" lat="32.420650" value="" />
						<location name="Iraq" lon="43.689850" lat="33.240520" value="" />
						<location name="Ireland" lon="-8.240550" lat="53.419609" value="" />
						<location name="Israel" lon="35.361240" lat="31.389299" value="" />
						<location name="Italy" lon="12.573410" lat="42.502998" value="126" />
						<location name="Japan" lon="139.838287" lat="37.487598" value="" />
						<location name="Jordan" lon="37.139351" lat="31.278749" value="" />
						<location name="Kazakhstan" lon="66.902290" lat="47.999249" value="" />
						<location name="Kenya" lon="37.903950" lat="-0.024350" value="" />
						<location name="Kuwait" lon="47.494450" lat="29.310150" value="" />
						<location name="Kyrgyzstan" lon="74.779900" lat="41.205540" value="" />
						<location name="Latvia" lon="24.607500" lat="56.875462" value="" />
						<location name="Lebanon" lon="35.876549" lat="33.872452" value="" />
						<location name="Libya" lon="17.268820" lat="26.338520" value="" />
						<location name="Lithuania" lon="23.959900" lat="55.174000" value="" />
						<location name="Malawi" lon="34.295380" lat="-13.246270" value="" />
						<location name="Malaysia" lon="114.401657" lat="3.945150" value="" />
						<location name="Malta" lon="14.450810" lat="35.904072" value="" />
						<location name="Mexico" lon="-101.956253" lat="23.625740" value="" />
						<location name="Moldova" lon="28.391310" lat="46.979328" value="" />
						<location name="Morocco" lon="-7.067000" lat="31.815411" value="" />
						<location name="Mozambique" lon="35.530151" lat="-18.670280" value="" />
						<location name="Netherlands" lon="5.330330" lat="52.108089" value="187" />
						<location name="New Zealand" lon="170.366638" lat="-43.587711" value="" />
						<location name="Nicaragua" lon="-85.424049" lat="12.866720" value="" />
						<location name="Niger" lon="8.080940" lat="17.610991" value="" />
						<location name="Nigeria" lon="8.674250" lat="9.084570" value="" />
						<location name="North Korea" lon="127.495216" lat="40.339600" value="" />
						<location name="North Yemen" lon="47.836750" lat="15.796700" value="" />
						<location name="Norway" lon="12.665380" lat="64.556534" value="1" />
						<location name="Oman" lon="55.859261" lat="20.814350" value="" />
						<location name="Pakistan" lon="69.359703" lat="30.441851" value="" />
						<location name="Panama" lon="-80.112778" lat="8.417700" value="" />
						<location name="Peru" lon="-75.002357" lat="-9.181340" value="" />
						<location name="Philippines" lon="120.739067" lat="15.593050" value="" />
						<location name="Poland" lon="19.136471" lat="51.922508" value="" />
						<location name="Portugal" lon="-7.845160" lat="39.565990" value="" />
						<location name="Qatar" lon="51.196758" lat="25.318800" value="" />
						<location name="Romania" lon="24.980400" lat="45.946949" value="" />
						<location name="Russia" lon="108.831779" lat="59.461479" value="" />
						<location name="Saudi Arabia" lon="45.120209" lat="23.917549" value="" />
						<location name="Senegal" lon="-14.445550" lat="14.499450" value="" />
						<location name="Singapore" lon="103.853256" lat="1.293780" value="" />
						<location name="Slovakia" lon="19.701740" lat="48.665501" value="" />
						<location name="South Africa" lon="24.676991" lat="-28.483219" value="" />
						<location name="South Korea" lon="127.850166" lat="36.448151" value="" />
						<location name="South Vietnam" lon="-66.115334" lat="18.406618" value="" />
						<location name="South Yemen" lon="47.836750" lat="15.796700" value="" />
						<location name="Spain" lon="-2.988680" lat="39.895020" value="" />
						<location name="Sudan" lon="30.209490" lat="13.316640" value="" />
						<location name="Sweden" lon="17.551420" lat="62.198448" value="30" />
						<location name="Switzerland" lon="8.224140" lat="46.813091" value="" />
						<location name="Syria" lon="39.056000" lat="34.814800" value="" />
						<location name="Taiwan" lon="121.023811" lat="23.599751" value="" />
						<location name="Thailand" lon="101.492500" lat="13.036590" value="" />
						<location name="Turkey" lon="35.449200" lat="38.958500" value="" />
						<location name="UAE" lon="55.115898" lat="24.287849" value="" />
						<location name="UK" lon="-2.232180" lat="54.313919" value="1645" />
						<location name="Ukraine" lon="31.173441" lat="48.382881" value="" />
						<location name="Uruguay" lon="-55.758331" lat="-32.531509" value="" />
						<location name="USA" lon="-98.58" lat="39.83" value="1641" />
						<location name="USSR" lon="55.794559" lat="44.957489" value="3239" />
						<location name="Uzbekistan" lon="64.564453" lat="41.394760" value="" />
						<location name="Venezuela" lon="-66.589043" lat="6.472790" value="" />
						<location name="Viet Nam" lon="107.868042" lat="15.974210" value="" />
						<location name="Zambia" lon="27.852539" lat="-13.151920" value="" />
						<location name="Zimbabwe" lon="29.146660" lat="-19.013281" value="" />
			</period>	
		<period value="1951">			<location name="Albania" lon="20.181061" lat="41.156799" value="" />
						<location name="Algeria" lon="1.652840" lat="28.026880" value="" />
						<location name="Angola" lon="17.907209" lat="-11.941840" value="" />
						<location name="Argentina" lon="-63.584808" lat="-37.090698" value="" />
						<location name="Australia" lon="133.393112" lat="-24.916201" value="" />
						<location name="Austria" lon="13.345770" lat="47.696510" value="" />
						<location name="Bahrain" lon="50.548500" lat="26.024750" value="" />
						<location name="Bangladesh" lon="90.350899" lat="23.687450" value="" />
						<location name="Belarus" lon="27.973749" lat="53.711048" value="" />
						<location name="Belgium" lon="4.476770" lat="50.500992" value="" />
						<location name="Bosnia-Herzegovina" lon="17.689079" lat="43.920250" value="" />
						<location name="Brazil" lon="-54.387829" lat="-14.242920" value="" />
						<location name="Bulgaria" lon="25.491590" lat="42.729759" value="" />
						<location name="Cambodia" lon="104.983856" lat="12.547730" value="" />
						<location name="Canada" lon="-96.582092" lat="62.358730" value="60" />
						<location name="Chad" lon="18.738060" lat="15.445710" value="" />
						<location name="Chile" lon="-71.341087" lat="-35.705219" value="" />
						<location name="China" lon="104.165649" lat="36.894451" value="" />
						<location name="Croatia" lon="15.408430" lat="44.736759" value="" />
						<location name="Cuba" lon="-77.806793" lat="21.511021" value="" />
						<location name="Cyprus" lon="33.435501" lat="35.132519" value="" />
						<location name="Czechoslovakia" lon="15.475270" lat="49.803791" value="15" />
						<location name="Czech Republic" lon="15.475270" lat="49.803791" value="" />
						<location name="Denmark" lon="9.516680" lat="56.275700" value="" />
						<location name="Egypt" lon="30.246469" lat="26.696360" value="" />
						<location name="Eritrea" lon="39.950859" lat="15.181320" value="" />
						<location name="Estonia" lon="25.815950" lat="58.596161" value="" />
						<location name="Ethiopia" lon="40.493050" lat="9.147300" value="" />
						<location name="Finland" lon="26.064140" lat="64.950371" value="" />
						<location name="France" lon="1.718320" lat="46.712448" value="56" />
						<location name="Gabon" lon="11.598910" lat="-0.828090" value="" />
						<location name="Georgia" lon="-83.222931" lat="32.678131" value="" />
						<location name="Ghana" lon="-1.031820" lat="7.955010" value="" />
						<location name="Greece" lon="21.845560" lat="39.072449" value="" />
						<location name="Guatemala" lon="-90.232307" lat="15.776250" value="" />
						<location name="Hungary" lon="19.509600" lat="47.164509" value="" />
						<location name="Iceland" lon="-19.021160" lat="64.963943" value="" />
						<location name="India" lon="82.794762" lat="21.786600" value="" />
						<location name="Indonesia" lon="113.917397" lat="0.109740" value="" />
						<location name="Iran" lon="53.682362" lat="32.420650" value="" />
						<location name="Iraq" lon="43.689850" lat="33.240520" value="" />
						<location name="Ireland" lon="-8.240550" lat="53.419609" value="" />
						<location name="Israel" lon="35.361240" lat="31.389299" value="" />
						<location name="Italy" lon="12.573410" lat="42.502998" value="107" />
						<location name="Japan" lon="139.838287" lat="37.487598" value="" />
						<location name="Jordan" lon="37.139351" lat="31.278749" value="" />
						<location name="Kazakhstan" lon="66.902290" lat="47.999249" value="" />
						<location name="Kenya" lon="37.903950" lat="-0.024350" value="" />
						<location name="Kuwait" lon="47.494450" lat="29.310150" value="" />
						<location name="Kyrgyzstan" lon="74.779900" lat="41.205540" value="" />
						<location name="Latvia" lon="24.607500" lat="56.875462" value="" />
						<location name="Lebanon" lon="35.876549" lat="33.872452" value="" />
						<location name="Libya" lon="17.268820" lat="26.338520" value="" />
						<location name="Lithuania" lon="23.959900" lat="55.174000" value="" />
						<location name="Malawi" lon="34.295380" lat="-13.246270" value="" />
						<location name="Malaysia" lon="114.401657" lat="3.945150" value="" />
						<location name="Malta" lon="14.450810" lat="35.904072" value="" />
						<location name="Mexico" lon="-101.956253" lat="23.625740" value="" />
						<location name="Moldova" lon="28.391310" lat="46.979328" value="" />
						<location name="Morocco" lon="-7.067000" lat="31.815411" value="" />
						<location name="Mozambique" lon="35.530151" lat="-18.670280" value="" />
						<location name="Netherlands" lon="5.330330" lat="52.108089" value="152" />
						<location name="New Zealand" lon="170.366638" lat="-43.587711" value="" />
						<location name="Nicaragua" lon="-85.424049" lat="12.866720" value="" />
						<location name="Niger" lon="8.080940" lat="17.610991" value="" />
						<location name="Nigeria" lon="8.674250" lat="9.084570" value="" />
						<location name="North Korea" lon="127.495216" lat="40.339600" value="" />
						<location name="North Yemen" lon="47.836750" lat="15.796700" value="" />
						<location name="Norway" lon="12.665380" lat="64.556534" value="29" />
						<location name="Oman" lon="55.859261" lat="20.814350" value="" />
						<location name="Pakistan" lon="69.359703" lat="30.441851" value="" />
						<location name="Panama" lon="-80.112778" lat="8.417700" value="" />
						<location name="Peru" lon="-75.002357" lat="-9.181340" value="" />
						<location name="Philippines" lon="120.739067" lat="15.593050" value="" />
						<location name="Poland" lon="19.136471" lat="51.922508" value="" />
						<location name="Portugal" lon="-7.845160" lat="39.565990" value="" />
						<location name="Qatar" lon="51.196758" lat="25.318800" value="" />
						<location name="Romania" lon="24.980400" lat="45.946949" value="" />
						<location name="Russia" lon="108.831779" lat="59.461479" value="" />
						<location name="Saudi Arabia" lon="45.120209" lat="23.917549" value="" />
						<location name="Senegal" lon="-14.445550" lat="14.499450" value="" />
						<location name="Singapore" lon="103.853256" lat="1.293780" value="" />
						<location name="Slovakia" lon="19.701740" lat="48.665501" value="" />
						<location name="South Africa" lon="24.676991" lat="-28.483219" value="" />
						<location name="South Korea" lon="127.850166" lat="36.448151" value="" />
						<location name="South Vietnam" lon="-66.115334" lat="18.406618" value="" />
						<location name="South Yemen" lon="47.836750" lat="15.796700" value="" />
						<location name="Spain" lon="-2.988680" lat="39.895020" value="" />
						<location name="Sudan" lon="30.209490" lat="13.316640" value="" />
						<location name="Sweden" lon="17.551420" lat="62.198448" value="49" />
						<location name="Switzerland" lon="8.224140" lat="46.813091" value="" />
						<location name="Syria" lon="39.056000" lat="34.814800" value="" />
						<location name="Taiwan" lon="121.023811" lat="23.599751" value="" />
						<location name="Thailand" lon="101.492500" lat="13.036590" value="" />
						<location name="Turkey" lon="35.449200" lat="38.958500" value="" />
						<location name="UAE" lon="55.115898" lat="24.287849" value="" />
						<location name="UK" lon="-2.232180" lat="54.313919" value="2138" />
						<location name="Ukraine" lon="31.173441" lat="48.382881" value="" />
						<location name="Uruguay" lon="-55.758331" lat="-32.531509" value="" />
						<location name="USA" lon="-98.58" lat="39.83" value="4539" />
						<location name="USSR" lon="55.794559" lat="44.957489" value="3108" />
						<location name="Uzbekistan" lon="64.564453" lat="41.394760" value="" />
						<location name="Venezuela" lon="-66.589043" lat="6.472790" value="" />
						<location name="Viet Nam" lon="107.868042" lat="15.974210" value="" />
						<location name="Zambia" lon="27.852539" lat="-13.151920" value="" />
						<location name="Zimbabwe" lon="29.146660" lat="-19.013281" value="" />
			</period>	
		<period value="1952">			<location name="Albania" lon="20.181061" lat="41.156799" value="" />
						<location name="Algeria" lon="1.652840" lat="28.026880" value="" />
						<location name="Angola" lon="17.907209" lat="-11.941840" value="" />
						<location name="Argentina" lon="-63.584808" lat="-37.090698" value="" />
						<location name="Australia" lon="133.393112" lat="-24.916201" value="29" />
						<location name="Austria" lon="13.345770" lat="47.696510" value="" />
						<location name="Bahrain" lon="50.548500" lat="26.024750" value="" />
						<location name="Bangladesh" lon="90.350899" lat="23.687450" value="" />
						<location name="Belarus" lon="27.973749" lat="53.711048" value="" />
						<location name="Belgium" lon="4.476770" lat="50.500992" value="" />
						<location name="Bosnia-Herzegovina" lon="17.689079" lat="43.920250" value="" />
						<location name="Brazil" lon="-54.387829" lat="-14.242920" value="" />
						<location name="Bulgaria" lon="25.491590" lat="42.729759" value="" />
						<location name="Cambodia" lon="104.983856" lat="12.547730" value="" />
						<location name="Canada" lon="-96.582092" lat="62.358730" value="268" />
						<location name="Chad" lon="18.738060" lat="15.445710" value="" />
						<location name="Chile" lon="-71.341087" lat="-35.705219" value="" />
						<location name="China" lon="104.165649" lat="36.894451" value="8" />
						<location name="Croatia" lon="15.408430" lat="44.736759" value="" />
						<location name="Cuba" lon="-77.806793" lat="21.511021" value="" />
						<location name="Cyprus" lon="33.435501" lat="35.132519" value="" />
						<location name="Czechoslovakia" lon="15.475270" lat="49.803791" value="15" />
						<location name="Czech Republic" lon="15.475270" lat="49.803791" value="" />
						<location name="Denmark" lon="9.516680" lat="56.275700" value="" />
						<location name="Egypt" lon="30.246469" lat="26.696360" value="" />
						<location name="Eritrea" lon="39.950859" lat="15.181320" value="" />
						<location name="Estonia" lon="25.815950" lat="58.596161" value="" />
						<location name="Ethiopia" lon="40.493050" lat="9.147300" value="" />
						<location name="Finland" lon="26.064140" lat="64.950371" value="" />
						<location name="France" lon="1.718320" lat="46.712448" value="36" />
						<location name="Gabon" lon="11.598910" lat="-0.828090" value="" />
						<location name="Georgia" lon="-83.222931" lat="32.678131" value="" />
						<location name="Ghana" lon="-1.031820" lat="7.955010" value="" />
						<location name="Greece" lon="21.845560" lat="39.072449" value="" />
						<location name="Guatemala" lon="-90.232307" lat="15.776250" value="" />
						<location name="Hungary" lon="19.509600" lat="47.164509" value="" />
						<location name="Iceland" lon="-19.021160" lat="64.963943" value="" />
						<location name="India" lon="82.794762" lat="21.786600" value="" />
						<location name="Indonesia" lon="113.917397" lat="0.109740" value="" />
						<location name="Iran" lon="53.682362" lat="32.420650" value="" />
						<location name="Iraq" lon="43.689850" lat="33.240520" value="" />
						<location name="Ireland" lon="-8.240550" lat="53.419609" value="" />
						<location name="Israel" lon="35.361240" lat="31.389299" value="" />
						<location name="Italy" lon="12.573410" lat="42.502998" value="23" />
						<location name="Japan" lon="139.838287" lat="37.487598" value="" />
						<location name="Jordan" lon="37.139351" lat="31.278749" value="" />
						<location name="Kazakhstan" lon="66.902290" lat="47.999249" value="" />
						<location name="Kenya" lon="37.903950" lat="-0.024350" value="" />
						<location name="Kuwait" lon="47.494450" lat="29.310150" value="" />
						<location name="Kyrgyzstan" lon="74.779900" lat="41.205540" value="" />
						<location name="Latvia" lon="24.607500" lat="56.875462" value="" />
						<location name="Lebanon" lon="35.876549" lat="33.872452" value="" />
						<location name="Libya" lon="17.268820" lat="26.338520" value="" />
						<location name="Lithuania" lon="23.959900" lat="55.174000" value="" />
						<location name="Malawi" lon="34.295380" lat="-13.246270" value="" />
						<location name="Malaysia" lon="114.401657" lat="3.945150" value="" />
						<location name="Malta" lon="14.450810" lat="35.904072" value="" />
						<location name="Mexico" lon="-101.956253" lat="23.625740" value="" />
						<location name="Moldova" lon="28.391310" lat="46.979328" value="" />
						<location name="Morocco" lon="-7.067000" lat="31.815411" value="" />
						<location name="Mozambique" lon="35.530151" lat="-18.670280" value="" />
						<location name="Netherlands" lon="5.330330" lat="52.108089" value="116" />
						<location name="New Zealand" lon="170.366638" lat="-43.587711" value="" />
						<location name="Nicaragua" lon="-85.424049" lat="12.866720" value="" />
						<location name="Niger" lon="8.080940" lat="17.610991" value="" />
						<location name="Nigeria" lon="8.674250" lat="9.084570" value="" />
						<location name="North Korea" lon="127.495216" lat="40.339600" value="" />
						<location name="North Yemen" lon="47.836750" lat="15.796700" value="" />
						<location name="Norway" lon="12.665380" lat="64.556534" value="" />
						<location name="Oman" lon="55.859261" lat="20.814350" value="" />
						<location name="Pakistan" lon="69.359703" lat="30.441851" value="" />
						<location name="Panama" lon="-80.112778" lat="8.417700" value="" />
						<location name="Peru" lon="-75.002357" lat="-9.181340" value="" />
						<location name="Philippines" lon="120.739067" lat="15.593050" value="" />
						<location name="Poland" lon="19.136471" lat="51.922508" value="" />
						<location name="Portugal" lon="-7.845160" lat="39.565990" value="" />
						<location name="Qatar" lon="51.196758" lat="25.318800" value="" />
						<location name="Romania" lon="24.980400" lat="45.946949" value="" />
						<location name="Russia" lon="108.831779" lat="59.461479" value="" />
						<location name="Saudi Arabia" lon="45.120209" lat="23.917549" value="" />
						<location name="Senegal" lon="-14.445550" lat="14.499450" value="" />
						<location name="Singapore" lon="103.853256" lat="1.293780" value="" />
						<location name="Slovakia" lon="19.701740" lat="48.665501" value="" />
						<location name="South Africa" lon="24.676991" lat="-28.483219" value="" />
						<location name="South Korea" lon="127.850166" lat="36.448151" value="" />
						<location name="South Vietnam" lon="-66.115334" lat="18.406618" value="" />
						<location name="South Yemen" lon="47.836750" lat="15.796700" value="" />
						<location name="Spain" lon="-2.988680" lat="39.895020" value="" />
						<location name="Sudan" lon="30.209490" lat="13.316640" value="" />
						<location name="Sweden" lon="17.551420" lat="62.198448" value="67" />
						<location name="Switzerland" lon="8.224140" lat="46.813091" value="" />
						<location name="Syria" lon="39.056000" lat="34.814800" value="" />
						<location name="Taiwan" lon="121.023811" lat="23.599751" value="" />
						<location name="Thailand" lon="101.492500" lat="13.036590" value="" />
						<location name="Turkey" lon="35.449200" lat="38.958500" value="1" />
						<location name="UAE" lon="55.115898" lat="24.287849" value="" />
						<location name="UK" lon="-2.232180" lat="54.313919" value="2068" />
						<location name="Ukraine" lon="31.173441" lat="48.382881" value="" />
						<location name="Uruguay" lon="-55.758331" lat="-32.531509" value="" />
						<location name="USA" lon="-98.58" lat="39.83" value="6239" />
						<location name="USSR" lon="55.794559" lat="44.957489" value="6148" />
						<location name="Uzbekistan" lon="64.564453" lat="41.394760" value="" />
						<location name="Venezuela" lon="-66.589043" lat="6.472790" value="" />
						<location name="Viet Nam" lon="107.868042" lat="15.974210" value="" />
						<location name="Zambia" lon="27.852539" lat="-13.151920" value="" />
						<location name="Zimbabwe" lon="29.146660" lat="-19.013281" value="" />
			</period>	
		<period value="1953">			<location name="Albania" lon="20.181061" lat="41.156799" value="" />
						<location name="Algeria" lon="1.652840" lat="28.026880" value="" />
						<location name="Angola" lon="17.907209" lat="-11.941840" value="" />
						<location name="Argentina" lon="-63.584808" lat="-37.090698" value="" />
						<location name="Australia" lon="133.393112" lat="-24.916201" value="" />
						<location name="Austria" lon="13.345770" lat="47.696510" value="" />
						<location name="Bahrain" lon="50.548500" lat="26.024750" value="" />
						<location name="Bangladesh" lon="90.350899" lat="23.687450" value="" />
						<location name="Belarus" lon="27.973749" lat="53.711048" value="" />
						<location name="Belgium" lon="4.476770" lat="50.500992" value="" />
						<location name="Bosnia-Herzegovina" lon="17.689079" lat="43.920250" value="" />
						<location name="Brazil" lon="-54.387829" lat="-14.242920" value="" />
						<location name="Bulgaria" lon="25.491590" lat="42.729759" value="" />
						<location name="Cambodia" lon="104.983856" lat="12.547730" value="" />
						<location name="Canada" lon="-96.582092" lat="62.358730" value="75" />
						<location name="Chad" lon="18.738060" lat="15.445710" value="" />
						<location name="Chile" lon="-71.341087" lat="-35.705219" value="" />
						<location name="China" lon="104.165649" lat="36.894451" value="16" />
						<location name="Croatia" lon="15.408430" lat="44.736759" value="" />
						<location name="Cuba" lon="-77.806793" lat="21.511021" value="" />
						<location name="Cyprus" lon="33.435501" lat="35.132519" value="" />
						<location name="Czechoslovakia" lon="15.475270" lat="49.803791" value="8" />
						<location name="Czech Republic" lon="15.475270" lat="49.803791" value="" />
						<location name="Denmark" lon="9.516680" lat="56.275700" value="" />
						<location name="Egypt" lon="30.246469" lat="26.696360" value="" />
						<location name="Eritrea" lon="39.950859" lat="15.181320" value="" />
						<location name="Estonia" lon="25.815950" lat="58.596161" value="" />
						<location name="Ethiopia" lon="40.493050" lat="9.147300" value="" />
						<location name="Finland" lon="26.064140" lat="64.950371" value="" />
						<location name="France" lon="1.718320" lat="46.712448" value="274" />
						<location name="Gabon" lon="11.598910" lat="-0.828090" value="" />
						<location name="Georgia" lon="-83.222931" lat="32.678131" value="" />
						<location name="Ghana" lon="-1.031820" lat="7.955010" value="" />
						<location name="Greece" lon="21.845560" lat="39.072449" value="" />
						<location name="Guatemala" lon="-90.232307" lat="15.776250" value="" />
						<location name="Hungary" lon="19.509600" lat="47.164509" value="" />
						<location name="Iceland" lon="-19.021160" lat="64.963943" value="" />
						<location name="India" lon="82.794762" lat="21.786600" value="" />
						<location name="Indonesia" lon="113.917397" lat="0.109740" value="" />
						<location name="Iran" lon="53.682362" lat="32.420650" value="" />
						<location name="Iraq" lon="43.689850" lat="33.240520" value="" />
						<location name="Ireland" lon="-8.240550" lat="53.419609" value="" />
						<location name="Israel" lon="35.361240" lat="31.389299" value="" />
						<location name="Italy" lon="12.573410" lat="42.502998" value="" />
						<location name="Japan" lon="139.838287" lat="37.487598" value="" />
						<location name="Jordan" lon="37.139351" lat="31.278749" value="" />
						<location name="Kazakhstan" lon="66.902290" lat="47.999249" value="" />
						<location name="Kenya" lon="37.903950" lat="-0.024350" value="" />
						<location name="Kuwait" lon="47.494450" lat="29.310150" value="" />
						<location name="Kyrgyzstan" lon="74.779900" lat="41.205540" value="" />
						<location name="Latvia" lon="24.607500" lat="56.875462" value="" />
						<location name="Lebanon" lon="35.876549" lat="33.872452" value="" />
						<location name="Libya" lon="17.268820" lat="26.338520" value="" />
						<location name="Lithuania" lon="23.959900" lat="55.174000" value="" />
						<location name="Malawi" lon="34.295380" lat="-13.246270" value="" />
						<location name="Malaysia" lon="114.401657" lat="3.945150" value="" />
						<location name="Malta" lon="14.450810" lat="35.904072" value="" />
						<location name="Mexico" lon="-101.956253" lat="23.625740" value="2" />
						<location name="Moldova" lon="28.391310" lat="46.979328" value="" />
						<location name="Morocco" lon="-7.067000" lat="31.815411" value="" />
						<location name="Mozambique" lon="35.530151" lat="-18.670280" value="" />
						<location name="Netherlands" lon="5.330330" lat="52.108089" value="115" />
						<location name="New Zealand" lon="170.366638" lat="-43.587711" value="" />
						<location name="Nicaragua" lon="-85.424049" lat="12.866720" value="" />
						<location name="Niger" lon="8.080940" lat="17.610991" value="" />
						<location name="Nigeria" lon="8.674250" lat="9.084570" value="" />
						<location name="North Korea" lon="127.495216" lat="40.339600" value="" />
						<location name="North Yemen" lon="47.836750" lat="15.796700" value="" />
						<location name="Norway" lon="12.665380" lat="64.556534" value="10" />
						<location name="Oman" lon="55.859261" lat="20.814350" value="" />
						<location name="Pakistan" lon="69.359703" lat="30.441851" value="" />
						<location name="Panama" lon="-80.112778" lat="8.417700" value="" />
						<location name="Peru" lon="-75.002357" lat="-9.181340" value="" />
						<location name="Philippines" lon="120.739067" lat="15.593050" value="" />
						<location name="Poland" lon="19.136471" lat="51.922508" value="" />
						<location name="Portugal" lon="-7.845160" lat="39.565990" value="" />
						<location name="Qatar" lon="51.196758" lat="25.318800" value="" />
						<location name="Romania" lon="24.980400" lat="45.946949" value="" />
						<location name="Russia" lon="108.831779" lat="59.461479" value="" />
						<location name="Saudi Arabia" lon="45.120209" lat="23.917549" value="" />
						<location name="Senegal" lon="-14.445550" lat="14.499450" value="" />
						<location name="Singapore" lon="103.853256" lat="1.293780" value="" />
						<location name="Slovakia" lon="19.701740" lat="48.665501" value="" />
						<location name="South Africa" lon="24.676991" lat="-28.483219" value="" />
						<location name="South Korea" lon="127.850166" lat="36.448151" value="" />
						<location name="South Vietnam" lon="-66.115334" lat="18.406618" value="" />
						<location name="South Yemen" lon="47.836750" lat="15.796700" value="" />
						<location name="Spain" lon="-2.988680" lat="39.895020" value="" />
						<location name="Sudan" lon="30.209490" lat="13.316640" value="" />
						<location name="Sweden" lon="17.551420" lat="62.198448" value="140" />
						<location name="Switzerland" lon="8.224140" lat="46.813091" value="" />
						<location name="Syria" lon="39.056000" lat="34.814800" value="" />
						<location name="Taiwan" lon="121.023811" lat="23.599751" value="" />
						<location name="Thailand" lon="101.492500" lat="13.036590" value="" />
						<location name="Turkey" lon="35.449200" lat="38.958500" value="" />
						<location name="UAE" lon="55.115898" lat="24.287849" value="" />
						<location name="UK" lon="-2.232180" lat="54.313919" value="2664" />
						<location name="Ukraine" lon="31.173441" lat="48.382881" value="" />
						<location name="Uruguay" lon="-55.758331" lat="-32.531509" value="" />
						<location name="USA" lon="-98.58" lat="39.83" value="8977" />
						<location name="USSR" lon="55.794559" lat="44.957489" value="8456" />
						<location name="Uzbekistan" lon="64.564453" lat="41.394760" value="" />
						<location name="Venezuela" lon="-66.589043" lat="6.472790" value="" />
						<location name="Viet Nam" lon="107.868042" lat="15.974210" value="" />
						<location name="Zambia" lon="27.852539" lat="-13.151920" value="" />
						<location name="Zimbabwe" lon="29.146660" lat="-19.013281" value="" />
			</period>	
		<period value="1954">			<location name="Albania" lon="20.181061" lat="41.156799" value="" />
						<location name="Algeria" lon="1.652840" lat="28.026880" value="" />
						<location name="Angola" lon="17.907209" lat="-11.941840" value="" />
						<location name="Argentina" lon="-63.584808" lat="-37.090698" value="" />
						<location name="Australia" lon="133.393112" lat="-24.916201" value="" />
						<location name="Austria" lon="13.345770" lat="47.696510" value="" />
						<location name="Bahrain" lon="50.548500" lat="26.024750" value="" />
						<location name="Bangladesh" lon="90.350899" lat="23.687450" value="" />
						<location name="Belarus" lon="27.973749" lat="53.711048" value="" />
						<location name="Belgium" lon="4.476770" lat="50.500992" value="9" />
						<location name="Bosnia-Herzegovina" lon="17.689079" lat="43.920250" value="" />
						<location name="Brazil" lon="-54.387829" lat="-14.242920" value="" />
						<location name="Bulgaria" lon="25.491590" lat="42.729759" value="" />
						<location name="Cambodia" lon="104.983856" lat="12.547730" value="" />
						<location name="Canada" lon="-96.582092" lat="62.358730" value="267" />
						<location name="Chad" lon="18.738060" lat="15.445710" value="" />
						<location name="Chile" lon="-71.341087" lat="-35.705219" value="" />
						<location name="China" lon="104.165649" lat="36.894451" value="19" />
						<location name="Croatia" lon="15.408430" lat="44.736759" value="" />
						<location name="Cuba" lon="-77.806793" lat="21.511021" value="" />
						<location name="Cyprus" lon="33.435501" lat="35.132519" value="" />
						<location name="Czechoslovakia" lon="15.475270" lat="49.803791" value="47" />
						<location name="Czech Republic" lon="15.475270" lat="49.803791" value="" />
						<location name="Denmark" lon="9.516680" lat="56.275700" value="" />
						<location name="Egypt" lon="30.246469" lat="26.696360" value="" />
						<location name="Eritrea" lon="39.950859" lat="15.181320" value="" />
						<location name="Estonia" lon="25.815950" lat="58.596161" value="" />
						<location name="Ethiopia" lon="40.493050" lat="9.147300" value="" />
						<location name="Finland" lon="26.064140" lat="64.950371" value="" />
						<location name="France" lon="1.718320" lat="46.712448" value="328" />
						<location name="Gabon" lon="11.598910" lat="-0.828090" value="" />
						<location name="Georgia" lon="-83.222931" lat="32.678131" value="" />
						<location name="Ghana" lon="-1.031820" lat="7.955010" value="" />
						<location name="Greece" lon="21.845560" lat="39.072449" value="" />
						<location name="Guatemala" lon="-90.232307" lat="15.776250" value="" />
						<location name="Hungary" lon="19.509600" lat="47.164509" value="" />
						<location name="Iceland" lon="-19.021160" lat="64.963943" value="" />
						<location name="India" lon="82.794762" lat="21.786600" value="" />
						<location name="Indonesia" lon="113.917397" lat="0.109740" value="" />
						<location name="Iran" lon="53.682362" lat="32.420650" value="" />
						<location name="Iraq" lon="43.689850" lat="33.240520" value="" />
						<location name="Ireland" lon="-8.240550" lat="53.419609" value="" />
						<location name="Israel" lon="35.361240" lat="31.389299" value="" />
						<location name="Italy" lon="12.573410" lat="42.502998" value="7" />
						<location name="Japan" lon="139.838287" lat="37.487598" value="" />
						<location name="Jordan" lon="37.139351" lat="31.278749" value="" />
						<location name="Kazakhstan" lon="66.902290" lat="47.999249" value="" />
						<location name="Kenya" lon="37.903950" lat="-0.024350" value="" />
						<location name="Kuwait" lon="47.494450" lat="29.310150" value="" />
						<location name="Kyrgyzstan" lon="74.779900" lat="41.205540" value="" />
						<location name="Latvia" lon="24.607500" lat="56.875462" value="" />
						<location name="Lebanon" lon="35.876549" lat="33.872452" value="" />
						<location name="Libya" lon="17.268820" lat="26.338520" value="" />
						<location name="Lithuania" lon="23.959900" lat="55.174000" value="" />
						<location name="Malawi" lon="34.295380" lat="-13.246270" value="" />
						<location name="Malaysia" lon="114.401657" lat="3.945150" value="" />
						<location name="Malta" lon="14.450810" lat="35.904072" value="" />
						<location name="Mexico" lon="-101.956253" lat="23.625740" value="" />
						<location name="Moldova" lon="28.391310" lat="46.979328" value="" />
						<location name="Morocco" lon="-7.067000" lat="31.815411" value="" />
						<location name="Mozambique" lon="35.530151" lat="-18.670280" value="" />
						<location name="Netherlands" lon="5.330330" lat="52.108089" value="162" />
						<location name="New Zealand" lon="170.366638" lat="-43.587711" value="" />
						<location name="Nicaragua" lon="-85.424049" lat="12.866720" value="" />
						<location name="Niger" lon="8.080940" lat="17.610991" value="" />
						<location name="Nigeria" lon="8.674250" lat="9.084570" value="" />
						<location name="North Korea" lon="127.495216" lat="40.339600" value="" />
						<location name="North Yemen" lon="47.836750" lat="15.796700" value="" />
						<location name="Norway" lon="12.665380" lat="64.556534" value="" />
						<location name="Oman" lon="55.859261" lat="20.814350" value="" />
						<location name="Pakistan" lon="69.359703" lat="30.441851" value="" />
						<location name="Panama" lon="-80.112778" lat="8.417700" value="" />
						<location name="Peru" lon="-75.002357" lat="-9.181340" value="" />
						<location name="Philippines" lon="120.739067" lat="15.593050" value="" />
						<location name="Poland" lon="19.136471" lat="51.922508" value="" />
						<location name="Portugal" lon="-7.845160" lat="39.565990" value="" />
						<location name="Qatar" lon="51.196758" lat="25.318800" value="" />
						<location name="Romania" lon="24.980400" lat="45.946949" value="" />
						<location name="Russia" lon="108.831779" lat="59.461479" value="" />
						<location name="Saudi Arabia" lon="45.120209" lat="23.917549" value="" />
						<location name="Senegal" lon="-14.445550" lat="14.499450" value="" />
						<location name="Singapore" lon="103.853256" lat="1.293780" value="" />
						<location name="Slovakia" lon="19.701740" lat="48.665501" value="" />
						<location name="South Africa" lon="24.676991" lat="-28.483219" value="" />
						<location name="South Korea" lon="127.850166" lat="36.448151" value="" />
						<location name="South Vietnam" lon="-66.115334" lat="18.406618" value="" />
						<location name="South Yemen" lon="47.836750" lat="15.796700" value="" />
						<location name="Spain" lon="-2.988680" lat="39.895020" value="" />
						<location name="Sudan" lon="30.209490" lat="13.316640" value="" />
						<location name="Sweden" lon="17.551420" lat="62.198448" value="21" />
						<location name="Switzerland" lon="8.224140" lat="46.813091" value="" />
						<location name="Syria" lon="39.056000" lat="34.814800" value="" />
						<location name="Taiwan" lon="121.023811" lat="23.599751" value="" />
						<location name="Thailand" lon="101.492500" lat="13.036590" value="" />
						<location name="Turkey" lon="35.449200" lat="38.958500" value="" />
						<location name="UAE" lon="55.115898" lat="24.287849" value="" />
						<location name="UK" lon="-2.232180" lat="54.313919" value="3122" />
						<location name="Ukraine" lon="31.173441" lat="48.382881" value="" />
						<location name="Uruguay" lon="-55.758331" lat="-32.531509" value="" />
						<location name="USA" lon="-98.58" lat="39.83" value="5288" />
						<location name="USSR" lon="55.794559" lat="44.957489" value="9485" />
						<location name="Uzbekistan" lon="64.564453" lat="41.394760" value="" />
						<location name="Venezuela" lon="-66.589043" lat="6.472790" value="" />
						<location name="Viet Nam" lon="107.868042" lat="15.974210" value="" />
						<location name="Zambia" lon="27.852539" lat="-13.151920" value="" />
						<location name="Zimbabwe" lon="29.146660" lat="-19.013281" value="" />
			</period>	
		<period value="1955">			<location name="Albania" lon="20.181061" lat="41.156799" value="" />
						<location name="Algeria" lon="1.652840" lat="28.026880" value="" />
						<location name="Angola" lon="17.907209" lat="-11.941840" value="" />
						<location name="Argentina" lon="-63.584808" lat="-37.090698" value="" />
						<location name="Australia" lon="133.393112" lat="-24.916201" value="125" />
						<location name="Austria" lon="13.345770" lat="47.696510" value="" />
						<location name="Bahrain" lon="50.548500" lat="26.024750" value="" />
						<location name="Bangladesh" lon="90.350899" lat="23.687450" value="" />
						<location name="Belarus" lon="27.973749" lat="53.711048" value="" />
						<location name="Belgium" lon="4.476770" lat="50.500992" value="9" />
						<location name="Bosnia-Herzegovina" lon="17.689079" lat="43.920250" value="" />
						<location name="Brazil" lon="-54.387829" lat="-14.242920" value="" />
						<location name="Bulgaria" lon="25.491590" lat="42.729759" value="" />
						<location name="Cambodia" lon="104.983856" lat="12.547730" value="" />
						<location name="Canada" lon="-96.582092" lat="62.358730" value="220" />
						<location name="Chad" lon="18.738060" lat="15.445710" value="" />
						<location name="Chile" lon="-71.341087" lat="-35.705219" value="" />
						<location name="China" lon="104.165649" lat="36.894451" value="16" />
						<location name="Croatia" lon="15.408430" lat="44.736759" value="" />
						<location name="Cuba" lon="-77.806793" lat="21.511021" value="" />
						<location name="Cyprus" lon="33.435501" lat="35.132519" value="" />
						<location name="Czechoslovakia" lon="15.475270" lat="49.803791" value="947" />
						<location name="Czech Republic" lon="15.475270" lat="49.803791" value="" />
						<location name="Denmark" lon="9.516680" lat="56.275700" value="" />
						<location name="Egypt" lon="30.246469" lat="26.696360" value="" />
						<location name="Eritrea" lon="39.950859" lat="15.181320" value="" />
						<location name="Estonia" lon="25.815950" lat="58.596161" value="" />
						<location name="Ethiopia" lon="40.493050" lat="9.147300" value="" />
						<location name="Finland" lon="26.064140" lat="64.950371" value="" />
						<location name="France" lon="1.718320" lat="46.712448" value="423" />
						<location name="Gabon" lon="11.598910" lat="-0.828090" value="" />
						<location name="Georgia" lon="-83.222931" lat="32.678131" value="" />
						<location name="Ghana" lon="-1.031820" lat="7.955010" value="" />
						<location name="Greece" lon="21.845560" lat="39.072449" value="" />
						<location name="Guatemala" lon="-90.232307" lat="15.776250" value="1" />
						<location name="Hungary" lon="19.509600" lat="47.164509" value="" />
						<location name="Iceland" lon="-19.021160" lat="64.963943" value="" />
						<location name="India" lon="82.794762" lat="21.786600" value="" />
						<location name="Indonesia" lon="113.917397" lat="0.109740" value="" />
						<location name="Iran" lon="53.682362" lat="32.420650" value="" />
						<location name="Iraq" lon="43.689850" lat="33.240520" value="" />
						<location name="Ireland" lon="-8.240550" lat="53.419609" value="" />
						<location name="Israel" lon="35.361240" lat="31.389299" value="39" />
						<location name="Italy" lon="12.573410" lat="42.502998" value="131" />
						<location name="Japan" lon="139.838287" lat="37.487598" value="104" />
						<location name="Jordan" lon="37.139351" lat="31.278749" value="" />
						<location name="Kazakhstan" lon="66.902290" lat="47.999249" value="" />
						<location name="Kenya" lon="37.903950" lat="-0.024350" value="" />
						<location name="Kuwait" lon="47.494450" lat="29.310150" value="" />
						<location name="Kyrgyzstan" lon="74.779900" lat="41.205540" value="" />
						<location name="Latvia" lon="24.607500" lat="56.875462" value="" />
						<location name="Lebanon" lon="35.876549" lat="33.872452" value="" />
						<location name="Libya" lon="17.268820" lat="26.338520" value="" />
						<location name="Lithuania" lon="23.959900" lat="55.174000" value="" />
						<location name="Malawi" lon="34.295380" lat="-13.246270" value="" />
						<location name="Malaysia" lon="114.401657" lat="3.945150" value="" />
						<location name="Malta" lon="14.450810" lat="35.904072" value="" />
						<location name="Mexico" lon="-101.956253" lat="23.625740" value="" />
						<location name="Moldova" lon="28.391310" lat="46.979328" value="" />
						<location name="Morocco" lon="-7.067000" lat="31.815411" value="" />
						<location name="Mozambique" lon="35.530151" lat="-18.670280" value="" />
						<location name="Netherlands" lon="5.330330" lat="52.108089" value="206" />
						<location name="New Zealand" lon="170.366638" lat="-43.587711" value="" />
						<location name="Nicaragua" lon="-85.424049" lat="12.866720" value="1" />
						<location name="Niger" lon="8.080940" lat="17.610991" value="" />
						<location name="Nigeria" lon="8.674250" lat="9.084570" value="" />
						<location name="North Korea" lon="127.495216" lat="40.339600" value="" />
						<location name="North Yemen" lon="47.836750" lat="15.796700" value="" />
						<location name="Norway" lon="12.665380" lat="64.556534" value="" />
						<location name="Oman" lon="55.859261" lat="20.814350" value="" />
						<location name="Pakistan" lon="69.359703" lat="30.441851" value="" />
						<location name="Panama" lon="-80.112778" lat="8.417700" value="" />
						<location name="Peru" lon="-75.002357" lat="-9.181340" value="" />
						<location name="Philippines" lon="120.739067" lat="15.593050" value="" />
						<location name="Poland" lon="19.136471" lat="51.922508" value="" />
						<location name="Portugal" lon="-7.845160" lat="39.565990" value="" />
						<location name="Qatar" lon="51.196758" lat="25.318800" value="" />
						<location name="Romania" lon="24.980400" lat="45.946949" value="" />
						<location name="Russia" lon="108.831779" lat="59.461479" value="" />
						<location name="Saudi Arabia" lon="45.120209" lat="23.917549" value="0" />
						<location name="Senegal" lon="-14.445550" lat="14.499450" value="" />
						<location name="Singapore" lon="103.853256" lat="1.293780" value="" />
						<location name="Slovakia" lon="19.701740" lat="48.665501" value="" />
						<location name="South Africa" lon="24.676991" lat="-28.483219" value="" />
						<location name="South Korea" lon="127.850166" lat="36.448151" value="" />
						<location name="South Vietnam" lon="-66.115334" lat="18.406618" value="" />
						<location name="South Yemen" lon="47.836750" lat="15.796700" value="" />
						<location name="Spain" lon="-2.988680" lat="39.895020" value="" />
						<location name="Sudan" lon="30.209490" lat="13.316640" value="" />
						<location name="Sweden" lon="17.551420" lat="62.198448" value="104" />
						<location name="Switzerland" lon="8.224140" lat="46.813091" value="" />
						<location name="Syria" lon="39.056000" lat="34.814800" value="" />
						<location name="Taiwan" lon="121.023811" lat="23.599751" value="" />
						<location name="Thailand" lon="101.492500" lat="13.036590" value="" />
						<location name="Turkey" lon="35.449200" lat="38.958500" value="" />
						<location name="UAE" lon="55.115898" lat="24.287849" value="" />
						<location name="UK" lon="-2.232180" lat="54.313919" value="4060" />
						<location name="Ukraine" lon="31.173441" lat="48.382881" value="" />
						<location name="Uruguay" lon="-55.758331" lat="-32.531509" value="" />
						<location name="USA" lon="-98.58" lat="39.83" value="6418" />
						<location name="USSR" lon="55.794559" lat="44.957489" value="6826" />
						<location name="Uzbekistan" lon="64.564453" lat="41.394760" value="" />
						<location name="Venezuela" lon="-66.589043" lat="6.472790" value="" />
						<location name="Viet Nam" lon="107.868042" lat="15.974210" value="" />
						<location name="Zambia" lon="27.852539" lat="-13.151920" value="" />
						<location name="Zimbabwe" lon="29.146660" lat="-19.013281" value="" />
			</period>	
		<period value="1956">			<location name="Albania" lon="20.181061" lat="41.156799" value="" />
						<location name="Algeria" lon="1.652840" lat="28.026880" value="" />
						<location name="Angola" lon="17.907209" lat="-11.941840" value="" />
						<location name="Argentina" lon="-63.584808" lat="-37.090698" value="" />
						<location name="Australia" lon="133.393112" lat="-24.916201" value="" />
						<location name="Austria" lon="13.345770" lat="47.696510" value="" />
						<location name="Bahrain" lon="50.548500" lat="26.024750" value="" />
						<location name="Bangladesh" lon="90.350899" lat="23.687450" value="" />
						<location name="Belarus" lon="27.973749" lat="53.711048" value="" />
						<location name="Belgium" lon="4.476770" lat="50.500992" value="22" />
						<location name="Bosnia-Herzegovina" lon="17.689079" lat="43.920250" value="" />
						<location name="Brazil" lon="-54.387829" lat="-14.242920" value="" />
						<location name="Bulgaria" lon="25.491590" lat="42.729759" value="" />
						<location name="Cambodia" lon="104.983856" lat="12.547730" value="" />
						<location name="Canada" lon="-96.582092" lat="62.358730" value="239" />
						<location name="Chad" lon="18.738060" lat="15.445710" value="" />
						<location name="Chile" lon="-71.341087" lat="-35.705219" value="" />
						<location name="China" lon="104.165649" lat="36.894451" value="51" />
						<location name="Croatia" lon="15.408430" lat="44.736759" value="" />
						<location name="Cuba" lon="-77.806793" lat="21.511021" value="" />
						<location name="Cyprus" lon="33.435501" lat="35.132519" value="" />
						<location name="Czechoslovakia" lon="15.475270" lat="49.803791" value="1557" />
						<location name="Czech Republic" lon="15.475270" lat="49.803791" value="" />
						<location name="Denmark" lon="9.516680" lat="56.275700" value="" />
						<location name="Egypt" lon="30.246469" lat="26.696360" value="8" />
						<location name="Eritrea" lon="39.950859" lat="15.181320" value="" />
						<location name="Estonia" lon="25.815950" lat="58.596161" value="" />
						<location name="Ethiopia" lon="40.493050" lat="9.147300" value="" />
						<location name="Finland" lon="26.064140" lat="64.950371" value="" />
						<location name="France" lon="1.718320" lat="46.712448" value="834" />
						<location name="Gabon" lon="11.598910" lat="-0.828090" value="" />
						<location name="Georgia" lon="-83.222931" lat="32.678131" value="" />
						<location name="Ghana" lon="-1.031820" lat="7.955010" value="" />
						<location name="Greece" lon="21.845560" lat="39.072449" value="" />
						<location name="Guatemala" lon="-90.232307" lat="15.776250" value="" />
						<location name="Hungary" lon="19.509600" lat="47.164509" value="" />
						<location name="Iceland" lon="-19.021160" lat="64.963943" value="" />
						<location name="India" lon="82.794762" lat="21.786600" value="" />
						<location name="Indonesia" lon="113.917397" lat="0.109740" value="" />
						<location name="Iran" lon="53.682362" lat="32.420650" value="" />
						<location name="Iraq" lon="43.689850" lat="33.240520" value="" />
						<location name="Ireland" lon="-8.240550" lat="53.419609" value="" />
						<location name="Israel" lon="35.361240" lat="31.389299" value="" />
						<location name="Italy" lon="12.573410" lat="42.502998" value="232" />
						<location name="Japan" lon="139.838287" lat="37.487598" value="40" />
						<location name="Jordan" lon="37.139351" lat="31.278749" value="" />
						<location name="Kazakhstan" lon="66.902290" lat="47.999249" value="" />
						<location name="Kenya" lon="37.903950" lat="-0.024350" value="" />
						<location name="Kuwait" lon="47.494450" lat="29.310150" value="" />
						<location name="Kyrgyzstan" lon="74.779900" lat="41.205540" value="" />
						<location name="Latvia" lon="24.607500" lat="56.875462" value="" />
						<location name="Lebanon" lon="35.876549" lat="33.872452" value="" />
						<location name="Libya" lon="17.268820" lat="26.338520" value="" />
						<location name="Lithuania" lon="23.959900" lat="55.174000" value="" />
						<location name="Malawi" lon="34.295380" lat="-13.246270" value="" />
						<location name="Malaysia" lon="114.401657" lat="3.945150" value="" />
						<location name="Malta" lon="14.450810" lat="35.904072" value="" />
						<location name="Mexico" lon="-101.956253" lat="23.625740" value="" />
						<location name="Moldova" lon="28.391310" lat="46.979328" value="" />
						<location name="Morocco" lon="-7.067000" lat="31.815411" value="" />
						<location name="Mozambique" lon="35.530151" lat="-18.670280" value="" />
						<location name="Netherlands" lon="5.330330" lat="52.108089" value="10" />
						<location name="New Zealand" lon="170.366638" lat="-43.587711" value="" />
						<location name="Nicaragua" lon="-85.424049" lat="12.866720" value="" />
						<location name="Niger" lon="8.080940" lat="17.610991" value="" />
						<location name="Nigeria" lon="8.674250" lat="9.084570" value="" />
						<location name="North Korea" lon="127.495216" lat="40.339600" value="" />
						<location name="North Yemen" lon="47.836750" lat="15.796700" value="" />
						<location name="Norway" lon="12.665380" lat="64.556534" value="" />
						<location name="Oman" lon="55.859261" lat="20.814350" value="" />
						<location name="Pakistan" lon="69.359703" lat="30.441851" value="" />
						<location name="Panama" lon="-80.112778" lat="8.417700" value="" />
						<location name="Peru" lon="-75.002357" lat="-9.181340" value="" />
						<location name="Philippines" lon="120.739067" lat="15.593050" value="" />
						<location name="Poland" lon="19.136471" lat="51.922508" value="" />
						<location name="Portugal" lon="-7.845160" lat="39.565990" value="" />
						<location name="Qatar" lon="51.196758" lat="25.318800" value="" />
						<location name="Romania" lon="24.980400" lat="45.946949" value="" />
						<location name="Russia" lon="108.831779" lat="59.461479" value="" />
						<location name="Saudi Arabia" lon="45.120209" lat="23.917549" value="" />
						<location name="Senegal" lon="-14.445550" lat="14.499450" value="" />
						<location name="Singapore" lon="103.853256" lat="1.293780" value="" />
						<location name="Slovakia" lon="19.701740" lat="48.665501" value="" />
						<location name="South Africa" lon="24.676991" lat="-28.483219" value="" />
						<location name="South Korea" lon="127.850166" lat="36.448151" value="" />
						<location name="South Vietnam" lon="-66.115334" lat="18.406618" value="" />
						<location name="South Yemen" lon="47.836750" lat="15.796700" value="" />
						<location name="Spain" lon="-2.988680" lat="39.895020" value="" />
						<location name="Sudan" lon="30.209490" lat="13.316640" value="" />
						<location name="Sweden" lon="17.551420" lat="62.198448" value="95" />
						<location name="Switzerland" lon="8.224140" lat="46.813091" value="" />
						<location name="Syria" lon="39.056000" lat="34.814800" value="" />
						<location name="Taiwan" lon="121.023811" lat="23.599751" value="" />
						<location name="Thailand" lon="101.492500" lat="13.036590" value="" />
						<location name="Turkey" lon="35.449200" lat="38.958500" value="" />
						<location name="UAE" lon="55.115898" lat="24.287849" value="" />
						<location name="UK" lon="-2.232180" lat="54.313919" value="5246" />
						<location name="Ukraine" lon="31.173441" lat="48.382881" value="" />
						<location name="Uruguay" lon="-55.758331" lat="-32.531509" value="" />
						<location name="USA" lon="-98.58" lat="39.83" value="7945" />
						<location name="USSR" lon="55.794559" lat="44.957489" value="6981" />
						<location name="Uzbekistan" lon="64.564453" lat="41.394760" value="" />
						<location name="Venezuela" lon="-66.589043" lat="6.472790" value="" />
						<location name="Viet Nam" lon="107.868042" lat="15.974210" value="" />
						<location name="Zambia" lon="27.852539" lat="-13.151920" value="" />
						<location name="Zimbabwe" lon="29.146660" lat="-19.013281" value="" />
			</period>	
		<period value="1957">			<location name="Albania" lon="20.181061" lat="41.156799" value="" />
						<location name="Algeria" lon="1.652840" lat="28.026880" value="" />
						<location name="Angola" lon="17.907209" lat="-11.941840" value="" />
						<location name="Argentina" lon="-63.584808" lat="-37.090698" value="" />
						<location name="Australia" lon="133.393112" lat="-24.916201" value="" />
						<location name="Austria" lon="13.345770" lat="47.696510" value="" />
						<location name="Bahrain" lon="50.548500" lat="26.024750" value="" />
						<location name="Bangladesh" lon="90.350899" lat="23.687450" value="" />
						<location name="Belarus" lon="27.973749" lat="53.711048" value="" />
						<location name="Belgium" lon="4.476770" lat="50.500992" value="" />
						<location name="Bosnia-Herzegovina" lon="17.689079" lat="43.920250" value="" />
						<location name="Brazil" lon="-54.387829" lat="-14.242920" value="" />
						<location name="Bulgaria" lon="25.491590" lat="42.729759" value="" />
						<location name="Cambodia" lon="104.983856" lat="12.547730" value="" />
						<location name="Canada" lon="-96.582092" lat="62.358730" value="165" />
						<location name="Chad" lon="18.738060" lat="15.445710" value="" />
						<location name="Chile" lon="-71.341087" lat="-35.705219" value="" />
						<location name="China" lon="104.165649" lat="36.894451" value="30" />
						<location name="Croatia" lon="15.408430" lat="44.736759" value="" />
						<location name="Cuba" lon="-77.806793" lat="21.511021" value="" />
						<location name="Cyprus" lon="33.435501" lat="35.132519" value="" />
						<location name="Czechoslovakia" lon="15.475270" lat="49.803791" value="1574" />
						<location name="Czech Republic" lon="15.475270" lat="49.803791" value="" />
						<location name="Denmark" lon="9.516680" lat="56.275700" value="" />
						<location name="Egypt" lon="30.246469" lat="26.696360" value="5" />
						<location name="Eritrea" lon="39.950859" lat="15.181320" value="" />
						<location name="Estonia" lon="25.815950" lat="58.596161" value="" />
						<location name="Ethiopia" lon="40.493050" lat="9.147300" value="" />
						<location name="Finland" lon="26.064140" lat="64.950371" value="" />
						<location name="France" lon="1.718320" lat="46.712448" value="599" />
						<location name="Gabon" lon="11.598910" lat="-0.828090" value="" />
						<location name="Georgia" lon="-83.222931" lat="32.678131" value="" />
						<location name="Ghana" lon="-1.031820" lat="7.955010" value="" />
						<location name="Greece" lon="21.845560" lat="39.072449" value="" />
						<location name="Guatemala" lon="-90.232307" lat="15.776250" value="" />
						<location name="Hungary" lon="19.509600" lat="47.164509" value="5" />
						<location name="Iceland" lon="-19.021160" lat="64.963943" value="" />
						<location name="India" lon="82.794762" lat="21.786600" value="" />
						<location name="Indonesia" lon="113.917397" lat="0.109740" value="" />
						<location name="Iran" lon="53.682362" lat="32.420650" value="" />
						<location name="Iraq" lon="43.689850" lat="33.240520" value="0" />
						<location name="Ireland" lon="-8.240550" lat="53.419609" value="" />
						<location name="Israel" lon="35.361240" lat="31.389299" value="4" />
						<location name="Italy" lon="12.573410" lat="42.502998" value="251" />
						<location name="Japan" lon="139.838287" lat="37.487598" value="112" />
						<location name="Jordan" lon="37.139351" lat="31.278749" value="" />
						<location name="Kazakhstan" lon="66.902290" lat="47.999249" value="" />
						<location name="Kenya" lon="37.903950" lat="-0.024350" value="" />
						<location name="Kuwait" lon="47.494450" lat="29.310150" value="" />
						<location name="Kyrgyzstan" lon="74.779900" lat="41.205540" value="" />
						<location name="Latvia" lon="24.607500" lat="56.875462" value="" />
						<location name="Lebanon" lon="35.876549" lat="33.872452" value="" />
						<location name="Libya" lon="17.268820" lat="26.338520" value="" />
						<location name="Lithuania" lon="23.959900" lat="55.174000" value="" />
						<location name="Malawi" lon="34.295380" lat="-13.246270" value="" />
						<location name="Malaysia" lon="114.401657" lat="3.945150" value="" />
						<location name="Malta" lon="14.450810" lat="35.904072" value="" />
						<location name="Mexico" lon="-101.956253" lat="23.625740" value="" />
						<location name="Moldova" lon="28.391310" lat="46.979328" value="" />
						<location name="Morocco" lon="-7.067000" lat="31.815411" value="" />
						<location name="Mozambique" lon="35.530151" lat="-18.670280" value="" />
						<location name="Netherlands" lon="5.330330" lat="52.108089" value="9" />
						<location name="New Zealand" lon="170.366638" lat="-43.587711" value="" />
						<location name="Nicaragua" lon="-85.424049" lat="12.866720" value="" />
						<location name="Niger" lon="8.080940" lat="17.610991" value="" />
						<location name="Nigeria" lon="8.674250" lat="9.084570" value="" />
						<location name="North Korea" lon="127.495216" lat="40.339600" value="" />
						<location name="North Yemen" lon="47.836750" lat="15.796700" value="" />
						<location name="Norway" lon="12.665380" lat="64.556534" value="" />
						<location name="Oman" lon="55.859261" lat="20.814350" value="" />
						<location name="Pakistan" lon="69.359703" lat="30.441851" value="" />
						<location name="Panama" lon="-80.112778" lat="8.417700" value="" />
						<location name="Peru" lon="-75.002357" lat="-9.181340" value="" />
						<location name="Philippines" lon="120.739067" lat="15.593050" value="" />
						<location name="Poland" lon="19.136471" lat="51.922508" value="" />
						<location name="Portugal" lon="-7.845160" lat="39.565990" value="" />
						<location name="Qatar" lon="51.196758" lat="25.318800" value="" />
						<location name="Romania" lon="24.980400" lat="45.946949" value="" />
						<location name="Russia" lon="108.831779" lat="59.461479" value="" />
						<location name="Saudi Arabia" lon="45.120209" lat="23.917549" value="" />
						<location name="Senegal" lon="-14.445550" lat="14.499450" value="" />
						<location name="Singapore" lon="103.853256" lat="1.293780" value="" />
						<location name="Slovakia" lon="19.701740" lat="48.665501" value="" />
						<location name="South Africa" lon="24.676991" lat="-28.483219" value="" />
						<location name="South Korea" lon="127.850166" lat="36.448151" value="" />
						<location name="South Vietnam" lon="-66.115334" lat="18.406618" value="" />
						<location name="South Yemen" lon="47.836750" lat="15.796700" value="" />
						<location name="Spain" lon="-2.988680" lat="39.895020" value="" />
						<location name="Sudan" lon="30.209490" lat="13.316640" value="" />
						<location name="Sweden" lon="17.551420" lat="62.198448" value="111" />
						<location name="Switzerland" lon="8.224140" lat="46.813091" value="" />
						<location name="Syria" lon="39.056000" lat="34.814800" value="" />
						<location name="Taiwan" lon="121.023811" lat="23.599751" value="" />
						<location name="Thailand" lon="101.492500" lat="13.036590" value="" />
						<location name="Turkey" lon="35.449200" lat="38.958500" value="" />
						<location name="UAE" lon="55.115898" lat="24.287849" value="" />
						<location name="UK" lon="-2.232180" lat="54.313919" value="4313" />
						<location name="Ukraine" lon="31.173441" lat="48.382881" value="" />
						<location name="Uruguay" lon="-55.758331" lat="-32.531509" value="" />
						<location name="USA" lon="-98.58" lat="39.83" value="8033" />
						<location name="USSR" lon="55.794559" lat="44.957489" value="7577" />
						<location name="Uzbekistan" lon="64.564453" lat="41.394760" value="" />
						<location name="Venezuela" lon="-66.589043" lat="6.472790" value="" />
						<location name="Viet Nam" lon="107.868042" lat="15.974210" value="" />
						<location name="Zambia" lon="27.852539" lat="-13.151920" value="" />
						<location name="Zimbabwe" lon="29.146660" lat="-19.013281" value="" />
			</period>	
		<period value="1958">			<location name="Albania" lon="20.181061" lat="41.156799" value="" />
						<location name="Algeria" lon="1.652840" lat="28.026880" value="" />
						<location name="Angola" lon="17.907209" lat="-11.941840" value="" />
						<location name="Argentina" lon="-63.584808" lat="-37.090698" value="" />
						<location name="Australia" lon="133.393112" lat="-24.916201" value="" />
						<location name="Austria" lon="13.345770" lat="47.696510" value="" />
						<location name="Bahrain" lon="50.548500" lat="26.024750" value="" />
						<location name="Bangladesh" lon="90.350899" lat="23.687450" value="" />
						<location name="Belarus" lon="27.973749" lat="53.711048" value="" />
						<location name="Belgium" lon="4.476770" lat="50.500992" value="" />
						<location name="Bosnia-Herzegovina" lon="17.689079" lat="43.920250" value="" />
						<location name="Brazil" lon="-54.387829" lat="-14.242920" value="" />
						<location name="Bulgaria" lon="25.491590" lat="42.729759" value="" />
						<location name="Cambodia" lon="104.983856" lat="12.547730" value="" />
						<location name="Canada" lon="-96.582092" lat="62.358730" value="420" />
						<location name="Chad" lon="18.738060" lat="15.445710" value="" />
						<location name="Chile" lon="-71.341087" lat="-35.705219" value="" />
						<location name="China" lon="104.165649" lat="36.894451" value="476" />
						<location name="Croatia" lon="15.408430" lat="44.736759" value="" />
						<location name="Cuba" lon="-77.806793" lat="21.511021" value="" />
						<location name="Cyprus" lon="33.435501" lat="35.132519" value="" />
						<location name="Czechoslovakia" lon="15.475270" lat="49.803791" value="1530" />
						<location name="Czech Republic" lon="15.475270" lat="49.803791" value="" />
						<location name="Denmark" lon="9.516680" lat="56.275700" value="" />
						<location name="Egypt" lon="30.246469" lat="26.696360" value="4" />
						<location name="Eritrea" lon="39.950859" lat="15.181320" value="" />
						<location name="Estonia" lon="25.815950" lat="58.596161" value="" />
						<location name="Ethiopia" lon="40.493050" lat="9.147300" value="" />
						<location name="Finland" lon="26.064140" lat="64.950371" value="" />
						<location name="France" lon="1.718320" lat="46.712448" value="644" />
						<location name="Gabon" lon="11.598910" lat="-0.828090" value="" />
						<location name="Georgia" lon="-83.222931" lat="32.678131" value="" />
						<location name="Ghana" lon="-1.031820" lat="7.955010" value="" />
						<location name="Greece" lon="21.845560" lat="39.072449" value="" />
						<location name="Guatemala" lon="-90.232307" lat="15.776250" value="" />
						<location name="Hungary" lon="19.509600" lat="47.164509" value="" />
						<location name="Iceland" lon="-19.021160" lat="64.963943" value="" />
						<location name="India" lon="82.794762" lat="21.786600" value="" />
						<location name="Indonesia" lon="113.917397" lat="0.109740" value="" />
						<location name="Iran" lon="53.682362" lat="32.420650" value="" />
						<location name="Iraq" lon="43.689850" lat="33.240520" value="" />
						<location name="Ireland" lon="-8.240550" lat="53.419609" value="" />
						<location name="Israel" lon="35.361240" lat="31.389299" value="" />
						<location name="Italy" lon="12.573410" lat="42.502998" value="209" />
						<location name="Japan" lon="139.838287" lat="37.487598" value="5" />
						<location name="Jordan" lon="37.139351" lat="31.278749" value="" />
						<location name="Kazakhstan" lon="66.902290" lat="47.999249" value="" />
						<location name="Kenya" lon="37.903950" lat="-0.024350" value="" />
						<location name="Kuwait" lon="47.494450" lat="29.310150" value="" />
						<location name="Kyrgyzstan" lon="74.779900" lat="41.205540" value="" />
						<location name="Latvia" lon="24.607500" lat="56.875462" value="" />
						<location name="Lebanon" lon="35.876549" lat="33.872452" value="" />
						<location name="Libya" lon="17.268820" lat="26.338520" value="" />
						<location name="Lithuania" lon="23.959900" lat="55.174000" value="" />
						<location name="Malawi" lon="34.295380" lat="-13.246270" value="" />
						<location name="Malaysia" lon="114.401657" lat="3.945150" value="" />
						<location name="Malta" lon="14.450810" lat="35.904072" value="" />
						<location name="Mexico" lon="-101.956253" lat="23.625740" value="" />
						<location name="Moldova" lon="28.391310" lat="46.979328" value="" />
						<location name="Morocco" lon="-7.067000" lat="31.815411" value="" />
						<location name="Mozambique" lon="35.530151" lat="-18.670280" value="" />
						<location name="Netherlands" lon="5.330330" lat="52.108089" value="30" />
						<location name="New Zealand" lon="170.366638" lat="-43.587711" value="" />
						<location name="Nicaragua" lon="-85.424049" lat="12.866720" value="2" />
						<location name="Niger" lon="8.080940" lat="17.610991" value="" />
						<location name="Nigeria" lon="8.674250" lat="9.084570" value="" />
						<location name="North Korea" lon="127.495216" lat="40.339600" value="" />
						<location name="North Yemen" lon="47.836750" lat="15.796700" value="" />
						<location name="Norway" lon="12.665380" lat="64.556534" value="" />
						<location name="Oman" lon="55.859261" lat="20.814350" value="" />
						<location name="Pakistan" lon="69.359703" lat="30.441851" value="" />
						<location name="Panama" lon="-80.112778" lat="8.417700" value="" />
						<location name="Peru" lon="-75.002357" lat="-9.181340" value="" />
						<location name="Philippines" lon="120.739067" lat="15.593050" value="" />
						<location name="Poland" lon="19.136471" lat="51.922508" value="" />
						<location name="Portugal" lon="-7.845160" lat="39.565990" value="" />
						<location name="Qatar" lon="51.196758" lat="25.318800" value="" />
						<location name="Romania" lon="24.980400" lat="45.946949" value="" />
						<location name="Russia" lon="108.831779" lat="59.461479" value="" />
						<location name="Saudi Arabia" lon="45.120209" lat="23.917549" value="" />
						<location name="Senegal" lon="-14.445550" lat="14.499450" value="" />
						<location name="Singapore" lon="103.853256" lat="1.293780" value="" />
						<location name="Slovakia" lon="19.701740" lat="48.665501" value="" />
						<location name="South Africa" lon="24.676991" lat="-28.483219" value="" />
						<location name="South Korea" lon="127.850166" lat="36.448151" value="" />
						<location name="South Vietnam" lon="-66.115334" lat="18.406618" value="" />
						<location name="South Yemen" lon="47.836750" lat="15.796700" value="" />
						<location name="Spain" lon="-2.988680" lat="39.895020" value="" />
						<location name="Sudan" lon="30.209490" lat="13.316640" value="" />
						<location name="Sweden" lon="17.551420" lat="62.198448" value="314" />
						<location name="Switzerland" lon="8.224140" lat="46.813091" value="" />
						<location name="Syria" lon="39.056000" lat="34.814800" value="" />
						<location name="Taiwan" lon="121.023811" lat="23.599751" value="" />
						<location name="Thailand" lon="101.492500" lat="13.036590" value="" />
						<location name="Turkey" lon="35.449200" lat="38.958500" value="" />
						<location name="UAE" lon="55.115898" lat="24.287849" value="" />
						<location name="UK" lon="-2.232180" lat="54.313919" value="3224" />
						<location name="Ukraine" lon="31.173441" lat="48.382881" value="" />
						<location name="Uruguay" lon="-55.758331" lat="-32.531509" value="" />
						<location name="USA" lon="-98.58" lat="39.83" value="9213" />
						<location name="USSR" lon="55.794559" lat="44.957489" value="9123" />
						<location name="Uzbekistan" lon="64.564453" lat="41.394760" value="" />
						<location name="Venezuela" lon="-66.589043" lat="6.472790" value="" />
						<location name="Viet Nam" lon="107.868042" lat="15.974210" value="" />
						<location name="Zambia" lon="27.852539" lat="-13.151920" value="" />
						<location name="Zimbabwe" lon="29.146660" lat="-19.013281" value="" />
			</period>	
		<period value="1959">			<location name="Albania" lon="20.181061" lat="41.156799" value="" />
						<location name="Algeria" lon="1.652840" lat="28.026880" value="" />
						<location name="Angola" lon="17.907209" lat="-11.941840" value="" />
						<location name="Argentina" lon="-63.584808" lat="-37.090698" value="" />
						<location name="Australia" lon="133.393112" lat="-24.916201" value="" />
						<location name="Austria" lon="13.345770" lat="47.696510" value="" />
						<location name="Bahrain" lon="50.548500" lat="26.024750" value="" />
						<location name="Bangladesh" lon="90.350899" lat="23.687450" value="" />
						<location name="Belarus" lon="27.973749" lat="53.711048" value="" />
						<location name="Belgium" lon="4.476770" lat="50.500992" value="" />
						<location name="Bosnia-Herzegovina" lon="17.689079" lat="43.920250" value="" />
						<location name="Brazil" lon="-54.387829" lat="-14.242920" value="" />
						<location name="Bulgaria" lon="25.491590" lat="42.729759" value="" />
						<location name="Cambodia" lon="104.983856" lat="12.547730" value="" />
						<location name="Canada" lon="-96.582092" lat="62.358730" value="102" />
						<location name="Chad" lon="18.738060" lat="15.445710" value="" />
						<location name="Chile" lon="-71.341087" lat="-35.705219" value="" />
						<location name="China" lon="104.165649" lat="36.894451" value="374" />
						<location name="Croatia" lon="15.408430" lat="44.736759" value="" />
						<location name="Cuba" lon="-77.806793" lat="21.511021" value="" />
						<location name="Cyprus" lon="33.435501" lat="35.132519" value="" />
						<location name="Czechoslovakia" lon="15.475270" lat="49.803791" value="937" />
						<location name="Czech Republic" lon="15.475270" lat="49.803791" value="" />
						<location name="Denmark" lon="9.516680" lat="56.275700" value="" />
						<location name="Egypt" lon="30.246469" lat="26.696360" value="4" />
						<location name="Eritrea" lon="39.950859" lat="15.181320" value="" />
						<location name="Estonia" lon="25.815950" lat="58.596161" value="" />
						<location name="Ethiopia" lon="40.493050" lat="9.147300" value="" />
						<location name="Finland" lon="26.064140" lat="64.950371" value="" />
						<location name="France" lon="1.718320" lat="46.712448" value="728" />
						<location name="Gabon" lon="11.598910" lat="-0.828090" value="" />
						<location name="Georgia" lon="-83.222931" lat="32.678131" value="" />
						<location name="Ghana" lon="-1.031820" lat="7.955010" value="" />
						<location name="Greece" lon="21.845560" lat="39.072449" value="" />
						<location name="Guatemala" lon="-90.232307" lat="15.776250" value="" />
						<location name="Hungary" lon="19.509600" lat="47.164509" value="" />
						<location name="Iceland" lon="-19.021160" lat="64.963943" value="" />
						<location name="India" lon="82.794762" lat="21.786600" value="0" />
						<location name="Indonesia" lon="113.917397" lat="0.109740" value="" />
						<location name="Iran" lon="53.682362" lat="32.420650" value="" />
						<location name="Iraq" lon="43.689850" lat="33.240520" value="" />
						<location name="Ireland" lon="-8.240550" lat="53.419609" value="" />
						<location name="Israel" lon="35.361240" lat="31.389299" value="23" />
						<location name="Italy" lon="12.573410" lat="42.502998" value="4" />
						<location name="Japan" lon="139.838287" lat="37.487598" value="41" />
						<location name="Jordan" lon="37.139351" lat="31.278749" value="2" />
						<location name="Kazakhstan" lon="66.902290" lat="47.999249" value="" />
						<location name="Kenya" lon="37.903950" lat="-0.024350" value="" />
						<location name="Kuwait" lon="47.494450" lat="29.310150" value="" />
						<location name="Kyrgyzstan" lon="74.779900" lat="41.205540" value="" />
						<location name="Latvia" lon="24.607500" lat="56.875462" value="" />
						<location name="Lebanon" lon="35.876549" lat="33.872452" value="" />
						<location name="Libya" lon="17.268820" lat="26.338520" value="" />
						<location name="Lithuania" lon="23.959900" lat="55.174000" value="" />
						<location name="Malawi" lon="34.295380" lat="-13.246270" value="" />
						<location name="Malaysia" lon="114.401657" lat="3.945150" value="" />
						<location name="Malta" lon="14.450810" lat="35.904072" value="" />
						<location name="Mexico" lon="-101.956253" lat="23.625740" value="" />
						<location name="Moldova" lon="28.391310" lat="46.979328" value="" />
						<location name="Morocco" lon="-7.067000" lat="31.815411" value="" />
						<location name="Mozambique" lon="35.530151" lat="-18.670280" value="" />
						<location name="Netherlands" lon="5.330330" lat="52.108089" value="31" />
						<location name="New Zealand" lon="170.366638" lat="-43.587711" value="" />
						<location name="Nicaragua" lon="-85.424049" lat="12.866720" value="" />
						<location name="Niger" lon="8.080940" lat="17.610991" value="" />
						<location name="Nigeria" lon="8.674250" lat="9.084570" value="" />
						<location name="North Korea" lon="127.495216" lat="40.339600" value="" />
						<location name="North Yemen" lon="47.836750" lat="15.796700" value="" />
						<location name="Norway" lon="12.665380" lat="64.556534" value="8" />
						<location name="Oman" lon="55.859261" lat="20.814350" value="" />
						<location name="Pakistan" lon="69.359703" lat="30.441851" value="" />
						<location name="Panama" lon="-80.112778" lat="8.417700" value="" />
						<location name="Peru" lon="-75.002357" lat="-9.181340" value="" />
						<location name="Philippines" lon="120.739067" lat="15.593050" value="" />
						<location name="Poland" lon="19.136471" lat="51.922508" value="28" />
						<location name="Portugal" lon="-7.845160" lat="39.565990" value="" />
						<location name="Qatar" lon="51.196758" lat="25.318800" value="" />
						<location name="Romania" lon="24.980400" lat="45.946949" value="" />
						<location name="Russia" lon="108.831779" lat="59.461479" value="" />
						<location name="Saudi Arabia" lon="45.120209" lat="23.917549" value="" />
						<location name="Senegal" lon="-14.445550" lat="14.499450" value="" />
						<location name="Singapore" lon="103.853256" lat="1.293780" value="" />
						<location name="Slovakia" lon="19.701740" lat="48.665501" value="" />
						<location name="South Africa" lon="24.676991" lat="-28.483219" value="6" />
						<location name="South Korea" lon="127.850166" lat="36.448151" value="" />
						<location name="South Vietnam" lon="-66.115334" lat="18.406618" value="" />
						<location name="South Yemen" lon="47.836750" lat="15.796700" value="" />
						<location name="Spain" lon="-2.988680" lat="39.895020" value="" />
						<location name="Sudan" lon="30.209490" lat="13.316640" value="" />
						<location name="Sweden" lon="17.551420" lat="62.198448" value="16" />
						<location name="Switzerland" lon="8.224140" lat="46.813091" value="19" />
						<location name="Syria" lon="39.056000" lat="34.814800" value="" />
						<location name="Taiwan" lon="121.023811" lat="23.599751" value="" />
						<location name="Thailand" lon="101.492500" lat="13.036590" value="" />
						<location name="Turkey" lon="35.449200" lat="38.958500" value="" />
						<location name="UAE" lon="55.115898" lat="24.287849" value="" />
						<location name="UK" lon="-2.232180" lat="54.313919" value="2489" />
						<location name="Ukraine" lon="31.173441" lat="48.382881" value="" />
						<location name="Uruguay" lon="-55.758331" lat="-32.531509" value="" />
						<location name="USA" lon="-98.58" lat="39.83" value="7330" />
						<location name="USSR" lon="55.794559" lat="44.957489" value="8149" />
						<location name="Uzbekistan" lon="64.564453" lat="41.394760" value="" />
						<location name="Venezuela" lon="-66.589043" lat="6.472790" value="" />
						<location name="Viet Nam" lon="107.868042" lat="15.974210" value="" />
						<location name="Zambia" lon="27.852539" lat="-13.151920" value="" />
						<location name="Zimbabwe" lon="29.146660" lat="-19.013281" value="" />
			</period>	
		<period value="1960">			<location name="Albania" lon="20.181061" lat="41.156799" value="" />
						<location name="Algeria" lon="1.652840" lat="28.026880" value="" />
						<location name="Angola" lon="17.907209" lat="-11.941840" value="" />
						<location name="Argentina" lon="-63.584808" lat="-37.090698" value="" />
						<location name="Australia" lon="133.393112" lat="-24.916201" value="" />
						<location name="Austria" lon="13.345770" lat="47.696510" value="" />
						<location name="Bahrain" lon="50.548500" lat="26.024750" value="" />
						<location name="Bangladesh" lon="90.350899" lat="23.687450" value="" />
						<location name="Belarus" lon="27.973749" lat="53.711048" value="" />
						<location name="Belgium" lon="4.476770" lat="50.500992" value="3" />
						<location name="Bosnia-Herzegovina" lon="17.689079" lat="43.920250" value="" />
						<location name="Brazil" lon="-54.387829" lat="-14.242920" value="2" />
						<location name="Bulgaria" lon="25.491590" lat="42.729759" value="" />
						<location name="Cambodia" lon="104.983856" lat="12.547730" value="" />
						<location name="Canada" lon="-96.582092" lat="62.358730" value="58" />
						<location name="Chad" lon="18.738060" lat="15.445710" value="" />
						<location name="Chile" lon="-71.341087" lat="-35.705219" value="" />
						<location name="China" lon="104.165649" lat="36.894451" value="303" />
						<location name="Croatia" lon="15.408430" lat="44.736759" value="" />
						<location name="Cuba" lon="-77.806793" lat="21.511021" value="" />
						<location name="Cyprus" lon="33.435501" lat="35.132519" value="" />
						<location name="Czechoslovakia" lon="15.475270" lat="49.803791" value="622" />
						<location name="Czech Republic" lon="15.475270" lat="49.803791" value="" />
						<location name="Denmark" lon="9.516680" lat="56.275700" value="18" />
						<location name="Egypt" lon="30.246469" lat="26.696360" value="" />
						<location name="Eritrea" lon="39.950859" lat="15.181320" value="" />
						<location name="Estonia" lon="25.815950" lat="58.596161" value="" />
						<location name="Ethiopia" lon="40.493050" lat="9.147300" value="" />
						<location name="Finland" lon="26.064140" lat="64.950371" value="60" />
						<location name="France" lon="1.718320" lat="46.712448" value="1071" />
						<location name="Gabon" lon="11.598910" lat="-0.828090" value="" />
						<location name="Georgia" lon="-83.222931" lat="32.678131" value="" />
						<location name="Ghana" lon="-1.031820" lat="7.955010" value="" />
						<location name="Greece" lon="21.845560" lat="39.072449" value="" />
						<location name="Guatemala" lon="-90.232307" lat="15.776250" value="" />
						<location name="Hungary" lon="19.509600" lat="47.164509" value="" />
						<location name="Iceland" lon="-19.021160" lat="64.963943" value="" />
						<location name="India" lon="82.794762" lat="21.786600" value="" />
						<location name="Indonesia" lon="113.917397" lat="0.109740" value="" />
						<location name="Iran" lon="53.682362" lat="32.420650" value="" />
						<location name="Iraq" lon="43.689850" lat="33.240520" value="3" />
						<location name="Ireland" lon="-8.240550" lat="53.419609" value="" />
						<location name="Israel" lon="35.361240" lat="31.389299" value="" />
						<location name="Italy" lon="12.573410" lat="42.502998" value="102" />
						<location name="Japan" lon="139.838287" lat="37.487598" value="" />
						<location name="Jordan" lon="37.139351" lat="31.278749" value="" />
						<location name="Kazakhstan" lon="66.902290" lat="47.999249" value="" />
						<location name="Kenya" lon="37.903950" lat="-0.024350" value="" />
						<location name="Kuwait" lon="47.494450" lat="29.310150" value="" />
						<location name="Kyrgyzstan" lon="74.779900" lat="41.205540" value="" />
						<location name="Latvia" lon="24.607500" lat="56.875462" value="" />
						<location name="Lebanon" lon="35.876549" lat="33.872452" value="" />
						<location name="Libya" lon="17.268820" lat="26.338520" value="" />
						<location name="Lithuania" lon="23.959900" lat="55.174000" value="" />
						<location name="Malawi" lon="34.295380" lat="-13.246270" value="" />
						<location name="Malaysia" lon="114.401657" lat="3.945150" value="" />
						<location name="Malta" lon="14.450810" lat="35.904072" value="" />
						<location name="Mexico" lon="-101.956253" lat="23.625740" value="" />
						<location name="Moldova" lon="28.391310" lat="46.979328" value="" />
						<location name="Morocco" lon="-7.067000" lat="31.815411" value="" />
						<location name="Mozambique" lon="35.530151" lat="-18.670280" value="" />
						<location name="Netherlands" lon="5.330330" lat="52.108089" value="6" />
						<location name="New Zealand" lon="170.366638" lat="-43.587711" value="" />
						<location name="Nicaragua" lon="-85.424049" lat="12.866720" value="" />
						<location name="Niger" lon="8.080940" lat="17.610991" value="" />
						<location name="Nigeria" lon="8.674250" lat="9.084570" value="" />
						<location name="North Korea" lon="127.495216" lat="40.339600" value="" />
						<location name="North Yemen" lon="47.836750" lat="15.796700" value="" />
						<location name="Norway" lon="12.665380" lat="64.556534" value="33" />
						<location name="Oman" lon="55.859261" lat="20.814350" value="" />
						<location name="Pakistan" lon="69.359703" lat="30.441851" value="" />
						<location name="Panama" lon="-80.112778" lat="8.417700" value="" />
						<location name="Peru" lon="-75.002357" lat="-9.181340" value="" />
						<location name="Philippines" lon="120.739067" lat="15.593050" value="" />
						<location name="Poland" lon="19.136471" lat="51.922508" value="3" />
						<location name="Portugal" lon="-7.845160" lat="39.565990" value="" />
						<location name="Qatar" lon="51.196758" lat="25.318800" value="" />
						<location name="Romania" lon="24.980400" lat="45.946949" value="" />
						<location name="Russia" lon="108.831779" lat="59.461479" value="" />
						<location name="Saudi Arabia" lon="45.120209" lat="23.917549" value="" />
						<location name="Senegal" lon="-14.445550" lat="14.499450" value="" />
						<location name="Singapore" lon="103.853256" lat="1.293780" value="" />
						<location name="Slovakia" lon="19.701740" lat="48.665501" value="" />
						<location name="South Africa" lon="24.676991" lat="-28.483219" value="68" />
						<location name="South Korea" lon="127.850166" lat="36.448151" value="" />
						<location name="South Vietnam" lon="-66.115334" lat="18.406618" value="" />
						<location name="South Yemen" lon="47.836750" lat="15.796700" value="" />
						<location name="Spain" lon="-2.988680" lat="39.895020" value="4" />
						<location name="Sudan" lon="30.209490" lat="13.316640" value="" />
						<location name="Sweden" lon="17.551420" lat="62.198448" value="36" />
						<location name="Switzerland" lon="8.224140" lat="46.813091" value="107" />
						<location name="Syria" lon="39.056000" lat="34.814800" value="" />
						<location name="Taiwan" lon="121.023811" lat="23.599751" value="" />
						<location name="Thailand" lon="101.492500" lat="13.036590" value="" />
						<location name="Turkey" lon="35.449200" lat="38.958500" value="" />
						<location name="UAE" lon="55.115898" lat="24.287849" value="" />
						<location name="UK" lon="-2.232180" lat="54.313919" value="1812" />
						<location name="Ukraine" lon="31.173441" lat="48.382881" value="" />
						<location name="Uruguay" lon="-55.758331" lat="-32.531509" value="6" />
						<location name="USA" lon="-98.58" lat="39.83" value="5936" />
						<location name="USSR" lon="55.794559" lat="44.957489" value="5934" />
						<location name="Uzbekistan" lon="64.564453" lat="41.394760" value="" />
						<location name="Venezuela" lon="-66.589043" lat="6.472790" value="" />
						<location name="Viet Nam" lon="107.868042" lat="15.974210" value="" />
						<location name="Zambia" lon="27.852539" lat="-13.151920" value="" />
						<location name="Zimbabwe" lon="29.146660" lat="-19.013281" value="" />
			</period>	
		<period value="1961">			<location name="Albania" lon="20.181061" lat="41.156799" value="" />
						<location name="Algeria" lon="1.652840" lat="28.026880" value="" />
						<location name="Angola" lon="17.907209" lat="-11.941840" value="" />
						<location name="Argentina" lon="-63.584808" lat="-37.090698" value="" />
						<location name="Australia" lon="133.393112" lat="-24.916201" value="2" />
						<location name="Austria" lon="13.345770" lat="47.696510" value="" />
						<location name="Bahrain" lon="50.548500" lat="26.024750" value="" />
						<location name="Bangladesh" lon="90.350899" lat="23.687450" value="" />
						<location name="Belarus" lon="27.973749" lat="53.711048" value="" />
						<location name="Belgium" lon="4.476770" lat="50.500992" value="0" />
						<location name="Bosnia-Herzegovina" lon="17.689079" lat="43.920250" value="" />
						<location name="Brazil" lon="-54.387829" lat="-14.242920" value="12" />
						<location name="Bulgaria" lon="25.491590" lat="42.729759" value="" />
						<location name="Cambodia" lon="104.983856" lat="12.547730" value="" />
						<location name="Canada" lon="-96.582092" lat="62.358730" value="302" />
						<location name="Chad" lon="18.738060" lat="15.445710" value="" />
						<location name="Chile" lon="-71.341087" lat="-35.705219" value="" />
						<location name="China" lon="104.165649" lat="36.894451" value="35" />
						<location name="Croatia" lon="15.408430" lat="44.736759" value="" />
						<location name="Cuba" lon="-77.806793" lat="21.511021" value="" />
						<location name="Cyprus" lon="33.435501" lat="35.132519" value="" />
						<location name="Czechoslovakia" lon="15.475270" lat="49.803791" value="198" />
						<location name="Czech Republic" lon="15.475270" lat="49.803791" value="" />
						<location name="Denmark" lon="9.516680" lat="56.275700" value="" />
						<location name="Egypt" lon="30.246469" lat="26.696360" value="0" />
						<location name="Eritrea" lon="39.950859" lat="15.181320" value="" />
						<location name="Estonia" lon="25.815950" lat="58.596161" value="" />
						<location name="Ethiopia" lon="40.493050" lat="9.147300" value="" />
						<location name="Finland" lon="26.064140" lat="64.950371" value="1" />
						<location name="France" lon="1.718320" lat="46.712448" value="1003" />
						<location name="Gabon" lon="11.598910" lat="-0.828090" value="" />
						<location name="Georgia" lon="-83.222931" lat="32.678131" value="" />
						<location name="Ghana" lon="-1.031820" lat="7.955010" value="" />
						<location name="Greece" lon="21.845560" lat="39.072449" value="" />
						<location name="Guatemala" lon="-90.232307" lat="15.776250" value="" />
						<location name="Hungary" lon="19.509600" lat="47.164509" value="" />
						<location name="Iceland" lon="-19.021160" lat="64.963943" value="" />
						<location name="India" lon="82.794762" lat="21.786600" value="0" />
						<location name="Indonesia" lon="113.917397" lat="0.109740" value="" />
						<location name="Iran" lon="53.682362" lat="32.420650" value="" />
						<location name="Iraq" lon="43.689850" lat="33.240520" value="" />
						<location name="Ireland" lon="-8.240550" lat="53.419609" value="" />
						<location name="Israel" lon="35.361240" lat="31.389299" value="" />
						<location name="Italy" lon="12.573410" lat="42.502998" value="303" />
						<location name="Japan" lon="139.838287" lat="37.487598" value="61" />
						<location name="Jordan" lon="37.139351" lat="31.278749" value="" />
						<location name="Kazakhstan" lon="66.902290" lat="47.999249" value="" />
						<location name="Kenya" lon="37.903950" lat="-0.024350" value="" />
						<location name="Kuwait" lon="47.494450" lat="29.310150" value="" />
						<location name="Kyrgyzstan" lon="74.779900" lat="41.205540" value="" />
						<location name="Latvia" lon="24.607500" lat="56.875462" value="" />
						<location name="Lebanon" lon="35.876549" lat="33.872452" value="" />
						<location name="Libya" lon="17.268820" lat="26.338520" value="" />
						<location name="Lithuania" lon="23.959900" lat="55.174000" value="" />
						<location name="Malawi" lon="34.295380" lat="-13.246270" value="" />
						<location name="Malaysia" lon="114.401657" lat="3.945150" value="" />
						<location name="Malta" lon="14.450810" lat="35.904072" value="" />
						<location name="Mexico" lon="-101.956253" lat="23.625740" value="" />
						<location name="Moldova" lon="28.391310" lat="46.979328" value="" />
						<location name="Morocco" lon="-7.067000" lat="31.815411" value="" />
						<location name="Mozambique" lon="35.530151" lat="-18.670280" value="" />
						<location name="Netherlands" lon="5.330330" lat="52.108089" value="93" />
						<location name="New Zealand" lon="170.366638" lat="-43.587711" value="" />
						<location name="Nicaragua" lon="-85.424049" lat="12.866720" value="" />
						<location name="Niger" lon="8.080940" lat="17.610991" value="" />
						<location name="Nigeria" lon="8.674250" lat="9.084570" value="" />
						<location name="North Korea" lon="127.495216" lat="40.339600" value="" />
						<location name="North Yemen" lon="47.836750" lat="15.796700" value="" />
						<location name="Norway" lon="12.665380" lat="64.556534" value="" />
						<location name="Oman" lon="55.859261" lat="20.814350" value="" />
						<location name="Pakistan" lon="69.359703" lat="30.441851" value="" />
						<location name="Panama" lon="-80.112778" lat="8.417700" value="" />
						<location name="Peru" lon="-75.002357" lat="-9.181340" value="" />
						<location name="Philippines" lon="120.739067" lat="15.593050" value="" />
						<location name="Poland" lon="19.136471" lat="51.922508" value="3" />
						<location name="Portugal" lon="-7.845160" lat="39.565990" value="" />
						<location name="Qatar" lon="51.196758" lat="25.318800" value="" />
						<location name="Romania" lon="24.980400" lat="45.946949" value="" />
						<location name="Russia" lon="108.831779" lat="59.461479" value="" />
						<location name="Saudi Arabia" lon="45.120209" lat="23.917549" value="" />
						<location name="Senegal" lon="-14.445550" lat="14.499450" value="" />
						<location name="Singapore" lon="103.853256" lat="1.293780" value="" />
						<location name="Slovakia" lon="19.701740" lat="48.665501" value="" />
						<location name="South Africa" lon="24.676991" lat="-28.483219" value="68" />
						<location name="South Korea" lon="127.850166" lat="36.448151" value="" />
						<location name="South Vietnam" lon="-66.115334" lat="18.406618" value="" />
						<location name="South Yemen" lon="47.836750" lat="15.796700" value="" />
						<location name="Spain" lon="-2.988680" lat="39.895020" value="14" />
						<location name="Sudan" lon="30.209490" lat="13.316640" value="" />
						<location name="Sweden" lon="17.551420" lat="62.198448" value="34" />
						<location name="Switzerland" lon="8.224140" lat="46.813091" value="185" />
						<location name="Syria" lon="39.056000" lat="34.814800" value="" />
						<location name="Taiwan" lon="121.023811" lat="23.599751" value="" />
						<location name="Thailand" lon="101.492500" lat="13.036590" value="" />
						<location name="Turkey" lon="35.449200" lat="38.958500" value="" />
						<location name="UAE" lon="55.115898" lat="24.287849" value="" />
						<location name="UK" lon="-2.232180" lat="54.313919" value="1035" />
						<location name="Ukraine" lon="31.173441" lat="48.382881" value="" />
						<location name="Uruguay" lon="-55.758331" lat="-32.531509" value="" />
						<location name="USA" lon="-98.58" lat="39.83" value="6464" />
						<location name="USSR" lon="55.794559" lat="44.957489" value="6995" />
						<location name="Uzbekistan" lon="64.564453" lat="41.394760" value="" />
						<location name="Venezuela" lon="-66.589043" lat="6.472790" value="" />
						<location name="Viet Nam" lon="107.868042" lat="15.974210" value="" />
						<location name="Zambia" lon="27.852539" lat="-13.151920" value="" />
						<location name="Zimbabwe" lon="29.146660" lat="-19.013281" value="" />
			</period>	
		<period value="1962">			<location name="Albania" lon="20.181061" lat="41.156799" value="" />
						<location name="Algeria" lon="1.652840" lat="28.026880" value="" />
						<location name="Angola" lon="17.907209" lat="-11.941840" value="" />
						<location name="Argentina" lon="-63.584808" lat="-37.090698" value="6" />
						<location name="Australia" lon="133.393112" lat="-24.916201" value="2" />
						<location name="Austria" lon="13.345770" lat="47.696510" value="" />
						<location name="Bahrain" lon="50.548500" lat="26.024750" value="" />
						<location name="Bangladesh" lon="90.350899" lat="23.687450" value="" />
						<location name="Belarus" lon="27.973749" lat="53.711048" value="" />
						<location name="Belgium" lon="4.476770" lat="50.500992" value="3" />
						<location name="Bosnia-Herzegovina" lon="17.689079" lat="43.920250" value="" />
						<location name="Brazil" lon="-54.387829" lat="-14.242920" value="" />
						<location name="Bulgaria" lon="25.491590" lat="42.729759" value="" />
						<location name="Cambodia" lon="104.983856" lat="12.547730" value="" />
						<location name="Canada" lon="-96.582092" lat="62.358730" value="185" />
						<location name="Chad" lon="18.738060" lat="15.445710" value="" />
						<location name="Chile" lon="-71.341087" lat="-35.705219" value="" />
						<location name="China" lon="104.165649" lat="36.894451" value="52" />
						<location name="Croatia" lon="15.408430" lat="44.736759" value="" />
						<location name="Cuba" lon="-77.806793" lat="21.511021" value="" />
						<location name="Cyprus" lon="33.435501" lat="35.132519" value="" />
						<location name="Czechoslovakia" lon="15.475270" lat="49.803791" value="172" />
						<location name="Czech Republic" lon="15.475270" lat="49.803791" value="" />
						<location name="Denmark" lon="9.516680" lat="56.275700" value="" />
						<location name="Egypt" lon="30.246469" lat="26.696360" value="7" />
						<location name="Eritrea" lon="39.950859" lat="15.181320" value="" />
						<location name="Estonia" lon="25.815950" lat="58.596161" value="" />
						<location name="Ethiopia" lon="40.493050" lat="9.147300" value="" />
						<location name="Finland" lon="26.064140" lat="64.950371" value="" />
						<location name="France" lon="1.718320" lat="46.712448" value="1081" />
						<location name="Gabon" lon="11.598910" lat="-0.828090" value="" />
						<location name="Georgia" lon="-83.222931" lat="32.678131" value="" />
						<location name="Ghana" lon="-1.031820" lat="7.955010" value="" />
						<location name="Greece" lon="21.845560" lat="39.072449" value="" />
						<location name="Guatemala" lon="-90.232307" lat="15.776250" value="" />
						<location name="Hungary" lon="19.509600" lat="47.164509" value="" />
						<location name="Iceland" lon="-19.021160" lat="64.963943" value="" />
						<location name="India" lon="82.794762" lat="21.786600" value="" />
